provider,source_dataset,source_file,source_layer,source_id,asset_class,asset_label,provider_class,subclass,name,status,country,commodity_group,liquid_capacity_bpd,liquid_throughput_bpd,gas_capacity_mmcfd,gas_throughput_mmcfd,lng_capacity_mtpa,lng_capacity_bcmy,oil_production_bpd,capacity_kbd,production_kbd,primary_output_kind,primary_output_value,primary_output_unit,primary_output_basis,geometry_role,provider_priority,lat,lon
GEM,ggit,/Users/erichoffmann/Iran_War_Visualisation/data_raw/Geodata/GEM-GGIT-LNG-Teminals-2025-09.xlsx,LNG Terminals,T100000130249,lng_facility,LNG / LPG Facility,export,,Damietta SEGAS LNG Terminal,operating,Egypt,gas,,,,,5,6.8,,,,lng_capacity_mtpa,5,mtpa,capacity,site,2,31.468999999999998,31.747299999999996
GEM,ggit,/Users/erichoffmann/Iran_War_Visualisation/data_raw/Geodata/GEM-GGIT-LNG-Teminals-2025-09.xlsx,LNG Terminals,T100000130250,lng_facility,LNG / LPG Facility,export,,Egyptian LNG Terminal,operating,Egypt,gas,,,,,3.6,4.9,,,,lng_capacity_mtpa,3.6,mtpa,capacity,site,2,31.3490481,30.318646599999997
GEM,ggit,/Users/erichoffmann/Iran_War_Visualisation/data_raw/Geodata/GEM-GGIT-LNG-Teminals-2025-09.xlsx,LNG Terminals,T100000130300,lng_facility,LNG / LPG Facility,import,,Daewoo Gas LNG Terminal,shelved,Pakistan,gas,,,,,2.5,3.4,,,,lng_capacity_mtpa,2.5,mtpa,capacity,site,2,25.110600000000005,62.339600000000004
GEM,ggit,/Users/erichoffmann/Iran_War_Visualisation/data_raw/Geodata/GEM-GGIT-LNG-Teminals-2025-09.xlsx,LNG Terminals,T100000130432,lng_facility,LNG / LPG Facility,import,,Cyprus FSRU,construction,Cyprus,gas,,,,,2,2.72,,,,lng_capacity_mtpa,2,mtpa,capacity,site,2,34.720244,33.323840000000004
GEM,ggit,/Users/erichoffmann/Iran_War_Visualisation/data_raw/Geodata/GEM-GGIT-LNG-Teminals-2025-09.xlsx,LNG Terminals,T100000130581,lng_facility,LNG / LPG Facility,import,,Bahrain Hidd FLNG Terminal,operating,Bahrain,gas,,,,,6,8.16,,,,lng_capacity_mtpa,6,mtpa,capacity,site,2,26.2104277,50.70314320000001
GEM,ggit,/Users/erichoffmann/Iran_War_Visualisation/data_raw/Geodata/GEM-GGIT-LNG-Teminals-2025-09.xlsx,LNG Terminals,T100000130583,lng_facility,LNG / LPG Facility,export,,Iran NIOC LNG Terminal,construction,Iran,gas,,,,,12.3,16.74,,,,lng_capacity_mtpa,12.3,mtpa,capacity,site,2,27.476111,52.6075
GEM,ggit,/Users/erichoffmann/Iran_War_Visualisation/data_raw/Geodata/GEM-GGIT-LNG-Teminals-2025-09.xlsx,LNG Terminals,T100000130584,lng_facility,LNG / LPG Facility,export,,North Pars LNG Terminal,cancelled,Iran,gas,,,,,32,43.54,,,,lng_capacity_mtpa,32,mtpa,capacity,site,2,26.619125000000004,52.067963999999996
GEM,ggit,/Users/erichoffmann/Iran_War_Visualisation/data_raw/Geodata/GEM-GGIT-LNG-Teminals-2025-09.xlsx,LNG Terminals,T100000130585,lng_facility,LNG / LPG Facility,export,,Kangan LNG Terminal,cancelled,Iran,gas,,,,,2,2.72,,,,lng_capacity_mtpa,2,mtpa,capacity,site,2,27.476111,52.6075
GEM,ggit,/Users/erichoffmann/Iran_War_Visualisation/data_raw/Geodata/GEM-GGIT-LNG-Teminals-2025-09.xlsx,LNG Terminals,T100000130586,lng_facility,LNG / LPG Facility,export,,Persian NIOC LNG Terminal,cancelled,Iran,gas,,,,,16,21.77,,,,lng_capacity_mtpa,16,mtpa,capacity,site,2,27.476111,52.6075
GEM,ggit,/Users/erichoffmann/Iran_War_Visualisation/data_raw/Geodata/GEM-GGIT-LNG-Teminals-2025-09.xlsx,LNG Terminals,T100000130587,lng_facility,LNG / LPG Facility,export,,Iran FLNG Terminal,cancelled,Iran,gas,,,,,0.5,0.68,,,,lng_capacity_mtpa,0.5,mtpa,capacity,site,2,29.235481,50.309999999999995
GEM,ggit,/Users/erichoffmann/Iran_War_Visualisation/data_raw/Geodata/GEM-GGIT-LNG-Teminals-2025-09.xlsx,LNG Terminals,T100000130588,lng_facility,LNG / LPG Facility,export,,Eilat FLNG Terminal,cancelled,Israel,gas,,,,,5.14,6.99,,,,lng_capacity_mtpa,5.14,mtpa,capacity,site,2,29.55,34.949999999999996
GEM,ggit,/Users/erichoffmann/Iran_War_Visualisation/data_raw/Geodata/GEM-GGIT-LNG-Teminals-2025-09.xlsx,LNG Terminals,T100000130589,lng_facility,LNG / LPG Facility,import,,Hadera FSRU Terminal,idled,Israel,gas,,,,,3.8,5.17,,,,lng_capacity_mtpa,3.8,mtpa,capacity,site,2,32.449999999999996,34.916667
GEM,ggit,/Users/erichoffmann/Iran_War_Visualisation/data_raw/Geodata/GEM-GGIT-LNG-Teminals-2025-09.xlsx,LNG Terminals,T100000130590,lng_facility,LNG / LPG Facility,export,,Tamar FLNG Terminal,cancelled,Israel,gas,,,,,3,4.08,,,,lng_capacity_mtpa,3,mtpa,capacity,site,2,33.07833300000001,33.951389
GEM,ggit,/Users/erichoffmann/Iran_War_Visualisation/data_raw/Geodata/GEM-GGIT-LNG-Teminals-2025-09.xlsx,LNG Terminals,T100000130591,lng_facility,LNG / LPG Facility,import,,Aqaba Jordan FSRU,operating,Jordan,gas,,,,,3.8,5.17,,,,lng_capacity_mtpa,3.8,mtpa,capacity,site,2,29.3752527,34.9635687
GEM,ggit,/Users/erichoffmann/Iran_War_Visualisation/data_raw/Geodata/GEM-GGIT-LNG-Teminals-2025-09.xlsx,LNG Terminals,T100000130592,lng_facility,LNG / LPG Facility,import,,Mina Al-Ahmadi LNG Terminal,idled,Kuwait,gas,,,,,9.6,13.059999999999999,,,,lng_capacity_mtpa,9.6,mtpa,capacity,site,2,29.071377300000005,48.16090090000001
GEM,ggit,/Users/erichoffmann/Iran_War_Visualisation/data_raw/Geodata/GEM-GGIT-LNG-Teminals-2025-09.xlsx,LNG Terminals,T100000130593,lng_facility,LNG / LPG Facility,export,,Oman Qalhat LNG Terminal,operating,Oman,gas,,,,,3.8,5.17,,,,lng_capacity_mtpa,3.8,mtpa,capacity,site,2,22.6586,59.40747999999999
GEM,ggit,/Users/erichoffmann/Iran_War_Visualisation/data_raw/Geodata/GEM-GGIT-LNG-Teminals-2025-09.xlsx,LNG Terminals,T100000130594,lng_facility,LNG / LPG Facility,export,,QatarEnergy LNG (N),operating,Qatar,gas,,,,,40.8,55.5,,,,lng_capacity_mtpa,40.8,mtpa,capacity,site,2,25.90841199999999,51.557708
GEM,ggit,/Users/erichoffmann/Iran_War_Visualisation/data_raw/Geodata/GEM-GGIT-LNG-Teminals-2025-09.xlsx,LNG Terminals,T100000130598,lng_facility,LNG / LPG Facility,export,,QatarEnergy LNG (S),operating,Qatar,gas,,,,,36.3,49.379999999999995,,,,lng_capacity_mtpa,36.3,mtpa,capacity,site,2,25.891475000000003,51.54435
GEM,ggit,/Users/erichoffmann/Iran_War_Visualisation/data_raw/Geodata/GEM-GGIT-LNG-Teminals-2025-09.xlsx,LNG Terminals,T100000130601,lng_facility,LNG / LPG Facility,LNG Terminals,,Das Island LNG Terminal,cancelled,United Arab Emirates,gas,,,,,6.9,9.379999999999999,,,,lng_capacity_mtpa,6.9,mtpa,capacity,site,2,25.1603681,52.87778899999999
GEM,ggit,/Users/erichoffmann/Iran_War_Visualisation/data_raw/Geodata/GEM-GGIT-LNG-Teminals-2025-09.xlsx,LNG Terminals,T100000130602,lng_facility,LNG / LPG Facility,import,,Fujairah LNG Terminal,cancelled,United Arab Emirates,gas,,,,,18.6,25.3,,,,lng_capacity_mtpa,18.6,mtpa,capacity,site,2,25.319096,56.375397
GEM,ggit,/Users/erichoffmann/Iran_War_Visualisation/data_raw/Geodata/GEM-GGIT-LNG-Teminals-2025-09.xlsx,LNG Terminals,T100000130603,lng_facility,LNG / LPG Facility,import,,Jebel Ali FLNG Terminal,operating,United Arab Emirates,gas,,,,,6,8.16,,,,lng_capacity_mtpa,6,mtpa,capacity,site,2,25.03103,55.066700000000004
GEM,ggit,/Users/erichoffmann/Iran_War_Visualisation/data_raw/Geodata/GEM-GGIT-LNG-Teminals-2025-09.xlsx,LNG Terminals,T100000130604,lng_facility,LNG / LPG Facility,import,,Ruwais FSRU,operating,United Arab Emirates,gas,,,,,3.8,5.17,,,,lng_capacity_mtpa,3.8,mtpa,capacity,site,2,24.148299999999995,52.73890000000001
GEM,ggit,/Users/erichoffmann/Iran_War_Visualisation/data_raw/Geodata/GEM-GGIT-LNG-Teminals-2025-09.xlsx,LNG Terminals,T100000130605,lng_facility,LNG / LPG Facility,export,,Yemen LNG Terminal,mothballed,Yemen,gas,,,,,3.35,4.56,,,,lng_capacity_mtpa,3.35,mtpa,capacity,site,2,13.981200000000001,48.18115
GEM,ggit,/Users/erichoffmann/Iran_War_Visualisation/data_raw/Geodata/GEM-GGIT-LNG-Teminals-2025-09.xlsx,LNG Terminals,T100000130618,lng_facility,LNG / LPG Facility,import,,Dörtyol FSRU,operating,Türkiye,gas,,,,,7.5,10.2,,,,lng_capacity_mtpa,7.5,mtpa,capacity,site,2,36.8509903,36.125975900000014
GEM,ggit,/Users/erichoffmann/Iran_War_Visualisation/data_raw/Geodata/GEM-GGIT-LNG-Teminals-2025-09.xlsx,LNG Terminals,T100000130627,lng_facility,LNG / LPG Facility,export,,Qeshm LNG Terminal,cancelled,Iran,gas,,,,,3.45,4.69,,,,lng_capacity_mtpa,3.45,mtpa,capacity,site,2,26.951056,55.75235500000001
GEM,ggit,/Users/erichoffmann/Iran_War_Visualisation/data_raw/Geodata/GEM-GGIT-LNG-Teminals-2025-09.xlsx,LNG Terminals,T100000130671,lng_facility,LNG / LPG Facility,import,,Al Zour LNG Terminal,operating,Kuwait,gas,,,,,22,29.93,,,,lng_capacity_mtpa,22,mtpa,capacity,site,2,28.718368300000005,48.3973631
GEM,ggit,/Users/erichoffmann/Iran_War_Visualisation/data_raw/Geodata/GEM-GGIT-LNG-Teminals-2025-09.xlsx,LNG Terminals,T100000130685,lng_facility,LNG / LPG Facility,import,,Ain Sokhna FSRU,operating,Egypt,gas,,,,,25.28,34.4,,,,lng_capacity_mtpa,25.28,mtpa,capacity,site,2,29.648629999999997,32.355923000000004
GEM,ggit,/Users/erichoffmann/Iran_War_Visualisation/data_raw/Geodata/GEM-GGIT-LNG-Teminals-2025-09.xlsx,LNG Terminals,T100000130686,lng_facility,LNG / LPG Facility,import,,Sumed BW FSRU,retired,Egypt,gas,,,,,5.7,7.76,,,,lng_capacity_mtpa,5.7,mtpa,capacity,site,2,29.602544099999996,32.3403948
GEM,ggit,/Users/erichoffmann/Iran_War_Visualisation/data_raw/Geodata/GEM-GGIT-LNG-Teminals-2025-09.xlsx,LNG Terminals,T100000130691,lng_facility,LNG / LPG Facility,import,,Sudan Red Sea LNG Terminal,shelved,Sudan,gas,,,,,,,,,,,,,,site,2,19.580261999999998,37.240723
GEM,ggit,/Users/erichoffmann/Iran_War_Visualisation/data_raw/Geodata/GEM-GGIT-LNG-Teminals-2025-09.xlsx,LNG Terminals,T100000130817,lng_facility,LNG / LPG Facility,export,,Qatar North Field LNG Terminal,construction,Qatar,gas,,,,,64,87.08,,,,lng_capacity_mtpa,64,mtpa,capacity,site,2,25.918690099999996,51.52770230000001
GEM,ggit,/Users/erichoffmann/Iran_War_Visualisation/data_raw/Geodata/GEM-GGIT-LNG-Teminals-2025-09.xlsx,LNG Terminals,T100000130828,lng_facility,LNG / LPG Facility,import,,Hoegh Cyprus FSRU,cancelled,Cyprus,gas,,,,,,,,,,,,,,site,2,34.710168,33.323549
GEM,ggit,/Users/erichoffmann/Iran_War_Visualisation/data_raw/Geodata/GEM-GGIT-LNG-Teminals-2025-09.xlsx,LNG Terminals,T100000130829,lng_facility,LNG / LPG Facility,export,,NewMed FLNG Terminal,proposed,Israel,gas,,,,,5.14,6.99,,,,lng_capacity_mtpa,5.14,mtpa,capacity,site,2,32.614000000000004,34.808
GEM,ggit,/Users/erichoffmann/Iran_War_Visualisation/data_raw/Geodata/GEM-GGIT-LNG-Teminals-2025-09.xlsx,LNG Terminals,T100000130916,lng_facility,LNG / LPG Facility,export,,South Pars LNG Terminal,cancelled,Iran,gas,,,,,10,13.61,,,,lng_capacity_mtpa,10,mtpa,capacity,site,2,26.619125000000004,52.067963999999996
GEM,ggit,/Users/erichoffmann/Iran_War_Visualisation/data_raw/Geodata/GEM-GGIT-LNG-Teminals-2025-09.xlsx,LNG Terminals,T100000130963,lng_facility,LNG / LPG Facility,import,,Beddawi FSRU,cancelled,Lebanon,gas,,,,,3.5,4.76,,,,lng_capacity_mtpa,3.5,mtpa,capacity,site,2,34.466704,35.832663000000004
GEM,ggit,/Users/erichoffmann/Iran_War_Visualisation/data_raw/Geodata/GEM-GGIT-LNG-Teminals-2025-09.xlsx,LNG Terminals,T100000130964,lng_facility,LNG / LPG Facility,import,,Selaata FSRU,cancelled,Lebanon,gas,,,,,,,,,,,,,,site,2,34.281578,35.650966999999994
GEM,ggit,/Users/erichoffmann/Iran_War_Visualisation/data_raw/Geodata/GEM-GGIT-LNG-Teminals-2025-09.xlsx,LNG Terminals,T100000130965,lng_facility,LNG / LPG Facility,import,,Zahrani FSRU,shelved,Lebanon,gas,,,,,,,,,,,,,,site,2,33.508047000000005,35.342265499999996
GEM,ggit,/Users/erichoffmann/Iran_War_Visualisation/data_raw/Geodata/GEM-GGIT-LNG-Teminals-2025-09.xlsx,LNG Terminals,T100000130972,lng_facility,LNG / LPG Facility,import,,Sharjah FSRU,cancelled,United Arab Emirates,gas,,,,,7.67,10.44,,,,lng_capacity_mtpa,7.67,mtpa,capacity,site,2,25.379099,55.387510999999996
GEM,ggit,/Users/erichoffmann/Iran_War_Visualisation/data_raw/Geodata/GEM-GGIT-LNG-Teminals-2025-09.xlsx,LNG Terminals,T100000131105,lng_facility,LNG / LPG Facility,export,,Ruwais LNG Terminal,construction,United Arab Emirates,gas,,,,,4.8,6.53,,,,lng_capacity_mtpa,4.8,mtpa,capacity,site,2,24.13523,52.652260000000005
GEM,ggit,/Users/erichoffmann/Iran_War_Visualisation/data_raw/Geodata/GEM-GGIT-LNG-Teminals-2025-09.xlsx,LNG Terminals,T100000131158,lng_facility,LNG / LPG Facility,import,,Al-Faw FSRU Terminal,proposed,Iraq,gas,,,,,7.67,10.44,,,,lng_capacity_mtpa,7.67,mtpa,capacity,site,2,29.89549999999999,48.435875100000004
GEM,ggit,/Users/erichoffmann/Iran_War_Visualisation/data_raw/Geodata/GEM-GGIT-LNG-Teminals-2025-09.xlsx,LNG Terminals,T100001048168,lng_facility,LNG / LPG Facility,import,,Khor Al-Zubair FSRU,proposed,Iraq,gas,,,,,3.83,5.21,,,,lng_capacity_mtpa,3.83,mtpa,capacity,site,2,30.195356,47.883483
GEM,ggit,/Users/erichoffmann/Iran_War_Visualisation/data_raw/Geodata/GEM-GGIT-LNG-Teminals-2025-09.xlsx,LNG Terminals,T100001048176,lng_facility,LNG / LPG Facility,import,,Sheikh Sabah LNG Terminal,proposed,Jordan,gas,,,,,5.48,7.46,,,,lng_capacity_mtpa,5.48,mtpa,capacity,site,2,29.376271,34.963801000000004
GEM,ggit,/Users/erichoffmann/Iran_War_Visualisation/data_raw/Geodata/GEM-GGIT-LNG-Teminals-2025-09.xlsx,LNG Terminals,T100001048245,lng_facility,LNG / LPG Facility,import,,Deir Ammar FSRU,proposed,Lebanon,gas,,,,,,,,,,,,,,site,2,34.467572000000004,35.894171
GEM,ggit,/Users/erichoffmann/Iran_War_Visualisation/data_raw/Geodata/GEM-GGIT-LNG-Teminals-2025-09.xlsx,LNG Terminals,T100001048370,lng_facility,LNG / LPG Facility,export,,Cyprus LNG Terminal,cancelled,Cyprus,gas,,,,,5,6.8,,,,lng_capacity_mtpa,5,mtpa,capacity,site,2,34.72772000000001,33.30103999999999
